[{"name": "G580", "segments": [{"name": "SINJON DVOR/DME (SJ)", "lat": "1.222", "lon": "103.856", "latdms": "011319N", "londms": "1035120E", "transf_x": 1929.600000000005, "transf_y": 199.79999999999998}, {"name": "HOSBA (R079/34 DME SJ)(R103/24 DME VTK)", "lat": "1.330", "lon": "104.405", "latdms": "011948N", "londms": "1042418E", "transf_x": 1435.499999999999, "transf_y": 297.00000000000006}, {"name": "TOMAN", "lat": "1.363", "lon": "105.788", "latdms": "012147N", "londms": "1054717E", "transf_x": 190.80000000000297, "transf_y": 326.7}, {"name": "OBGET", "lat": "1.385", "lon": "106.759", "latdms": "012307N", "londms": "1064531E", "transf_x": 683.1000000000004, "transf_y": 346.5}, {"name": "NIMIX", "lat": "1.414", "lon": "107.991", "latdms": "012452N", "londms": "1075926E", "transf_x": 1791.8999999999996, "transf_y": 372.5999999999999}, {"name": "ATETI (FIR BDRY)", "lat": "1.428", "lon": "108.500", "latdms": "012540N", "londms": "1083000E", "transf_x": 2250.0, "transf_y": 385.19999999999993}]}, {"name": "L644", "segments": [{"name": "DUDIS (WSJC/VVTS FIR BDRY)", "lat": "7.000", "lon": "106.810", "latdms": "070000N", "londms": "1064836E", "transf_x": 729.000000000002, "transf_y": 5400.0}, {"name": "MABLI", "lat": "4.288", "lon": "106.213", "latdms": "041717N", "londms": "1061247E", "transf_x": 191.69999999999447, "transf_y": 2959.2000000000003}, {"name": "OPULA", "lat": "3.532", "lon": "106.355", "latdms": "033155N", "londms": "1062118E", "transf_x": 319.5000000000036, "transf_y": 2278.8}, {"name": "ONAPO", "lat": "3.354", "lon": "106.388", "latdms": "032116N", "londms": "1062318E", "transf_x": 349.2000000000047, "transf_y": 2118.6}, {"name": "OMLIV", "lat": "2.920", "lon": "106.470", "latdms": "025512N", "londms": "1062812E", "transf_x": 422.999999999999, "transf_y": 1728.0}, {"name": "OMBAP", "lat": "2.521", "lon": "106.545", "latdms": "023116N", "londms": "1063242E", "transf_x": 490.50000000000153, "transf_y": 1368.8999999999999}, {"name": "OLSAM", "lat": "2.016", "lon": "106.640", "latdms": "020059N", "londms": "1063824E", "transf_x": 576.0000000000005, "transf_y": 914.4}, {"name": "OBLOT", "lat": "1.716", "lon": "106.696", "latdms": "014256N", "londms": "1064147E", "transf_x": 626.3999999999982, "transf_y": 644.4}, {"name": "OBGET", "lat": "1.385", "lon": "106.759", "latdms": "012307N", "londms": "1064531E", "transf_x": 683.1000000000004, "transf_y": 346.5}, {"name": "KIKOR (WSJC/WIIZ FIR BDRY)", "lat": "-0.379", "lon": "107.090", "latdms": "002244S", "londms": "1070524E", "transf_x": 981.0000000000031, "transf_y": 1241.1}]}, {"name": "M646", "segments": [{"name": "KAMIN (WBFC/WSJC FIR BDRY)", "lat": "2.578", "lon": "108.927", "latdms": "023442N", "londms": "1085536E", "transf_x": 2634.300000000006, "transf_y": 1420.1999999999998}, {"name": "SABIP", "lat": "2.161", "lon": "107.846", "latdms": "020940N", "londms": "1075044E", "transf_x": 1661.4000000000033, "transf_y": 1044.9}, {"name": "ESPIT", "lat": "2.003", "lon": "107.440", "latdms": "020011N", "londms": "1072624E", "transf_x": 1295.999999999998, "transf_y": 902.7}, {"name": "OBLOT", "lat": "1.716", "lon": "106.696", "latdms": "014256N", "londms": "1064147E", "transf_x": 626.3999999999982, "transf_y": 644.4}, {"name": "TOMAN", "lat": "1.363", "lon": "105.788", "latdms": "012147N", "londms": "1054717E", "transf_x": 190.80000000000297, "transf_y": 326.7}]}]